[
    { "name": "Veterinaria Norte 1", "lat": 4.710989, "lon": -74.072092, "address": "Calle 85 #12-34" },
    { "name": "Veterinaria Norte 2", "lat": 4.715000, "lon": -74.069000, "address": "Carrera 15 #78-45" },
    { "name": "Veterinaria Norte 3", "lat": 4.720000, "lon": -74.067000, "address": "Calle 100 #15-60" },
    { "name": "Veterinaria Centro 1", "lat": 4.648283, "lon": -74.102772, "address": "Carrera 7 #45-23" },
    { "name": "Veterinaria Centro 2", "lat": 4.650000, "lon": -74.100000, "address": "Calle 45 #8-90" },
    { "name": "Veterinaria Centro 3", "lat": 4.645000, "lon": -74.110000, "address": "Carrera 10 #50-30" },
    { "name": "Veterinaria Sur 1", "lat": 4.579365, "lon": -74.136884, "address": "Avenida Villavicencio #32-15" },
    { "name": "Veterinaria Sur 2", "lat": 4.580000, "lon": -74.140000, "address": "Calle 40 Sur #20-50" },
    { "name": "Veterinaria Sur 3", "lat": 4.575000, "lon": -74.145000, "address": "Carrera 30 #60 Sur-80" },
    { "name": "Veterinaria Chapinero", "lat": 4.658850, "lon": -74.059500, "address": "Carrera 9 #59-20" },
    { "name": "Veterinaria Usaquén", "lat": 4.724000, "lon": -74.042000, "address": "Carrera 7 #120-30" },
    { "name": "Veterinaria Teusaquillo", "lat": 4.654000, "lon": -74.064000, "address": "Calle 53 #15-40" },
    { "name": "Veterinaria Fontibón", "lat": 4.678000, "lon": -74.152000, "address": "Calle 20 #100-20" },
    { "name": "Veterinaria Suba 1", "lat": 4.741000, "lon": -74.096000, "address": "Avenida Suba #150-25" },
    { "name": "Veterinaria Suba 2", "lat": 4.742000, "lon": -74.099000, "address": "Calle 140 #94-20" },
    { "name": "Veterinaria Engativá 1", "lat": 4.700000, "lon": -74.120000, "address": "Carrera 70 #80-30" },
    { "name": "Veterinaria Engativá 2", "lat": 4.702000, "lon": -74.125000, "address": "Calle 80 #72-40" },
    { "name": "Veterinaria Kennedy 1", "lat": 4.627000, "lon": -74.135000, "address": "Avenida Primero de Mayo #72-10" },
    { "name": "Veterinaria Kennedy 2", "lat": 4.625000, "lon": -74.140000, "address": "Calle 8 Sur #72-20" },
    { "name": "Veterinaria San Cristóbal", "lat": 4.588000, "lon": -74.082000, "address": "Carrera 10 Este #20-15" },
    { "name": "Veterinaria Bosa", "lat": 4.612000, "lon": -74.190000, "address": "Carrera 80 #67 Sur-90" },
    { "name": "Veterinaria Rafael Uribe", "lat": 4.608000, "lon": -74.100000, "address": "Carrera 12 #44-30" },
    { "name": "Veterinaria Puente Aranda", "lat": 4.634000, "lon": -74.107000, "address": "Calle 16 #30-20" },
    { "name": "Veterinaria Candelaria", "lat": 4.600000, "lon": -74.070000, "address": "Calle 10 #2-15" },
    { "name": "Veterinaria Antonio Nariño", "lat": 4.601000, "lon": -74.094000, "address": "Carrera 10 #20-30" },
    { "name": "Veterinaria Tunjuelito", "lat": 4.576000, "lon": -74.142000, "address": "Carrera 27 #60-90" },
    { "name": "Veterinaria Santa Fe", "lat": 4.608000, "lon": -74.077000, "address": "Carrera 7 #15-30" },
    { "name": "Veterinaria Mártires", "lat": 4.612000, "lon": -74.086000, "address": "Carrera 14 #20-50" },
    { "name": "Veterinaria Chapinero Central", "lat": 4.658000, "lon": -74.060000, "address": "Calle 60 #12-20" },
    { "name": "Veterinaria Paloquemao", "lat": 4.635000, "lon": -74.090000, "address": "Carrera 30 #19-10" },
    { "name": "Veterinaria Modelia", "lat": 4.668000, "lon": -74.112000, "address": "Carrera 72 #22-15" }
]
